     3.03           OBSERVATION DATA    M: Mixed            RINEX VERSION / TYPE
rinex ON            NSL                 20191112 155907 UTC PGM / RUN BY / DATE
                                                            MARKER NAME
                                                            MARKER TYPE
rinex ON User                                               OBSERVER / AGENCY
 -2854010.8114  4666983.2050  3268467.7142                  APPROX POSITION XYZ
XXXXXXXX            Xiaomi              MI 8                REC # / TYPE / VERS
XXXXXXXX            MI 8                                    ANT # / TYPE
        0.0000        0.0000        0.0000                  APPROX POSITION XYZ
        0.0000        0.0000        0.0000                  ANTENNA: DELTA H/E/N
G    8 C1C L1C D1C S1C C5X L5X D5X S5X                      SYS / # / OBS TYPES
R    4 C1C L1C D1C S1C                                      SYS / # / OBS TYPES
  2019    11    12    07    59   26.0000924     GPS         TIME OF FIRST OBS
                                                            END OF HEADER
> 2019 11 12 07 59 26.0000924  0  8
G10  20295346.824      -24094.759         850.452          39.271    20295340.228      -63878.675         635.091          37.338
G12  21561648.881         294.392         -22.821          42.616                                                            
G15  24970413.842       36230.809       -2077.931          34.633                                                            
G20  20591929.704       26802.560       -1532.704          23.731                                                            
G24  22843092.856       68874.416       -2453.545          36.351    22843086.860      181027.906       -1832.025          33.031
G25  21140265.099      -86283.988        2720.350          27.320    21140226.126     -295437.092        2050.396          19.179
G31  23159043.228      -56811.596        3241.124          36.457                                                            
G32  21816272.809     -211891.090        1708.449          16.916                                                            
> 2019 11 12 07 59 27.0000924  0  8
G10  20295189.133      -24944.633         849.874          38.567    20295178.940      -64513.278         634.603          37.214
G12  21561658.774         317.973         -23.582          43.254                                                            
G15  24970792.780       38309.643       -2079.283          31.127                                                            
G20  20592221.402       28329.105       -1530.145          20.650                                                            
G24  22843561.431       71328.034       -2453.618          36.703    22843555.136      182860.255       -1832.350          32.262
G25  21139738.963      -89034.300        2731.910          22.352    21139707.785     -297478.518        2041.193          20.712
G31  23158431.352      -60053.242        3241.646          32.836                                                            
G32  21815833.613     -213598.922        1712.431          13.688                                                            
> 2019 11 12 07 59 28.0000924  0  8
G10  20295023.647      -25793.790         849.157          38.572    20295017.052      -65147.417         634.139          38.629
G12  21561660.273         342.279         -24.306          43.267                                                            
G15  24971180.412       40388.364       -2079.281          27.904                                                            
G20  20592512.200       29857.752       -1532.231          19.469                                                            
G24  22844024.311       73781.696       -2453.662          37.790    22844021.913      184692.489       -1832.233          33.792
G25  21139216.725      -91795.901        2755.445          18.692    21139184.947     -299515.269        2040.312          21.067
G31  23157813.479      -63294.216        3240.973          32.573                                                            
G32  21815395.316     -215310.241        1715.175          13.925                                                            
> 2019 11 12 07 59 29.0000924  0  8
G10  20294864.158      -26642.237         848.446          38.666    20294855.464      -65780.976         633.559          38.547
G12  21561667.768         367.394         -25.115          43.244                                                            
G15  24971583.632       42467.331       -2079.607          27.763                                                            
G20  20592800.901       31387.983       -1537.380          20.084                                                            
G24  22844491.987       76235.577       -2453.881          38.471    22844488.690      186524.955       -1832.466          33.623
G25  21138697.784      -94554.192        2758.214          15.329    21138664.507     -301556.036        2041.983          20.786
G31  23157192.909      -66534.670        3240.454          32.374                                                            
G32  21814956.720     -217024.492        1710.907          14.012                                                            
> 2019 11 12 07 59 30.0000924  0  8
G10  20294702.870      -27489.920         847.683          38.739    20294694.176      -66414.008         633.032          38.323
G12  21561668.967         393.238         -25.844          42.890                                                            
G15  24971979.958       44546.444       -2079.113          29.887                                                            
G20  20593092.898       32925.980       -1542.739          19.837                                                            
G24  22844961.462       78689.551       -2453.974          38.639    22844955.466      188357.491       -1832.537          33.064
G25  21138175.845      -97317.840        2756.366          11.908    21138145.866     -303594.792        2040.252          22.038
G31  23156578.334      -69774.740        3240.070          32.004                                                            
G32  21814527.117     -218731.956        1712.755          14.657                                                            
> 2019 11 12 07 59 31.0000924  0  8
G10  20294542.181      -28337.031         847.111          38.329    20294532.887      -67046.568         632.560          38.452
G12  21561676.762         419.318         -26.080          42.502                                                            
G15  24972380.781       46625.655       -2079.211          31.104                                                            
G20  20593383.397       34465.492       -1543.707          18.911                                                            
G24  22845430.038       81143.156       -2453.605          38.690    22845422.243      190190.049       -1832.558          33.176
G25  21137653.907     -100073.204        2743.295          14.951    21137627.525     -305634.280        2038.814          21.683
G31  23155962.561      -73014.488        3239.748          31.560                                                            
G32  21814088.521     -220439.867        1697.511          12.001                                                            
> 2019 11 12 07 59 32.0000924  0  8
G10  20294380.593      -29183.419         846.388          38.866    20294372.198      -67678.627         632.058          38.952
G12  21561683.057         446.589         -27.271          43.390                                                            
G15  24972778.305       48705.044       -2079.389          33.494                                                            
G20  20593681.991       36008.544       -1542.672          20.922                                                            
G24  22845893.817       83597.345       -2454.189          38.724    22845889.320      192022.751       -1832.702          33.743
G25  21137143.360     -102805.785        2726.843          18.402    21137105.586     -307671.292        2040.996          22.268
G31  23155346.187      -76253.949        3239.461          31.732                                                            
G32  21813656.820     -222141.645        1705.267          13.446                                                            
> 2019 11 12 07 59 33.0000924  0  8
G10  20294219.304      -30029.520         846.101          39.212    20294210.910      -68310.476         631.849          39.055
G12  21561687.255         474.261         -27.673          43.456                                                            
G15  24973186.023       50784.151       -2079.107          35.226                                                            
G20  20593977.886       37551.134       -1539.577          21.857                                                            
G24  22846360.294       86051.223       -2453.877          38.418    22846356.097      193855.182       -1832.431          33.927
G25  21136607.331     -105523.040        2724.708          20.380    21136585.446     -309711.463        2037.340          22.880
G31  23154731.313      -79493.406        3239.456          32.018                                                            
G32  21813222.121     -223851.497        1698.807          13.915                                                            
> 2019 11 12 07 59 34.0000924  0  8
G10  20294054.718      -30875.711         846.191          39.028    20294049.922      -68942.369         631.893          39.567
G12  21561694.150         501.886         -27.624          42.815                                                            
G15  24973582.948       52862.655       -2078.504          35.946                                                            
G20  20594274.680       39093.602       -1544.268          22.761                                                            
G24  22846829.169       88504.499       -2453.276          37.563    22846823.173      195687.206       -1832.024          35.146
G25  21136106.378     -108246.833        2730.315          20.962    21136066.506     -311746.432        2035.446          22.912
G31  23154114.940      -82733.291        3239.886          31.618                                                            
G32  21812779.927     -225561.887        1703.761          14.688                                                            
> 2019 11 12 07 59 35.0000924  0  8
G10  20293894.030      -31721.259         845.548          39.347    20293888.633      -69573.787         631.418          40.396
G12  21561698.946         530.228         -28.342          41.650                                                            
G15  24973975.377       54941.199       -2078.543          37.142                                                            
G20  20594572.374       40636.636       -1543.034          23.034                                                            
G24  22847291.749       90957.806       -2453.307          35.885    22847290.250      197519.197       -1831.991          35.787
G25  21135582.940     -110976.713        2731.371          22.587    21135546.965     -313785.225        2038.656          21.363
G31  23153496.168      -85972.873        3239.581          33.477                                                            
G32  21812348.825     -227270.751        1709.819          17.763                                                            
> 2019 11 12 07 59 36.0000924  0  8
G10  20293733.940      -32566.150         844.891          39.110    20293728.244      -70204.710         630.923          39.571
G12  21561701.645         559.249         -29.021          42.560                                                            
G15  24974380.096       57019.918       -2078.719          37.546                                                            
G20  20594871.267       42180.161       -1543.525          24.013                                                            
G24  22847759.425       93411.135       -2453.329          36.514    22847756.727      199351.189       -1831.992          35.608
G25  21135059.203     -113706.155        2729.725          22.711    21135028.025     -315824.564        2038.160          22.073
G31  23152882.493      -89212.023        3239.150          32.527                                                            
G32  21811914.726     -228977.010        1709.552          16.566                                                            
> 2019 11 12 07 59 37.0000924  0  8
G10  20293575.350      -33410.144         843.994          38.783    20293567.556      -70834.956         630.246          38.267
G12  21561710.339         589.265         -30.016          42.287                                                            
G15  24974775.223       59099.001       -2079.083          37.966                                                            
G20  20595159.967       43724.468       -1544.942          22.759                                                            
G24  22848226.202       95864.872       -2453.737          33.973    22848224.403      201183.566       -1832.377          32.661
G25  21134531.868     -116434.900        2729.700          22.117    21134508.484     -317862.222        2037.099          22.894
G31  23152272.116      -92450.786        3238.764          31.486                                                            
G32  21811476.729     -230680.258        1703.808          12.882                                                            
> 2019 11 12 07 59 38.0000924  0  8
G10  20293414.961      -34252.585         842.441          38.273    20293407.167      -71464.040         629.084          38.024
G12  21561713.636         620.877         -31.612          41.632                                                            
G15  24975170.649       61179.106       -2080.105          38.031                                                            
G20  20595453.764       45268.057       -1546.445          22.002                                                            
G24  22848694.178       98319.558       -2454.686          35.034    22848690.281      203016.617       -1833.051          31.336
G25  21134016.825     -119162.080        2727.686          22.203    21133987.745     -319898.818        2034.855          22.665
G31  23151652.145      -95688.202        3237.416          31.897                                                            
G32  21811043.229     -232390.547        1706.531          12.490                                                            
> 2019 11 12 07 59 39.0000924  0  8
G10  20293254.872      -35093.247         840.662          38.595    20293247.677      -72091.826         627.786          38.191
G12  21561722.030         654.348         -33.472          41.569                                                            
G15  24975572.671       63260.427       -2081.322          38.968                                                            
G20  20595753.557       46810.337       -1549.449          22.857                                                            
G24  22849159.756      100775.438       -2455.880          35.860    22849159.456      204850.573       -1833.956          31.700
G25  21133495.785     -121887.912        2725.832          25.127    21133468.804     -321931.709        2029.111          21.923
G31  23151037.570      -98924.241        3236.039          33.136                                                            
G32  21810608.530     -234098.432        1705.502          13.575                                                            
> 2019 11 12 07 59 40.0000924  0  8
G10  20293091.485      -35933.292         840.045          38.245    20293087.888      -72719.182         627.356          39.622
G12  21561727.727         688.402         -34.053          39.717                                                            
G15  24975963.001       65341.764       -2081.337          38.931                                                            
G20  20596039.858       48358.376       -1550.700          23.424                                                            
G24  22849626.533      103231.271       -2455.833          34.912    22849625.633      206684.555       -1833.982          35.124
G25  21132982.541     -124612.988        2725.076          27.843    21132950.463     -323974.807        2037.868          20.170
G31  23150425.094     -102159.988        3235.747          34.254                                                            
G32  21810174.730     -235806.191        1705.116          17.338                                                            
> 2019 11 12 07 59 41.0000924  0  8
G10  20292933.494      -36772.926         839.634          39.197    20292927.798      -73346.197         627.014          39.793
G12  21561729.225         722.997         -34.595          41.028                                                            
G15  24976356.029       67422.956       -2081.192          39.526                                                            
G20  20596330.057       49906.641       -1548.733          23.907                                                            
G24  22850095.108      105686.990       -2455.720          34.681    22850093.609      208518.404       -1833.849          34.258
G25  21132462.700     -127337.848        2724.860          27.744    21132433.321     -326007.037        2032.386          19.323
G31  23149813.218     -105395.691        3235.703          32.961                                                            
G32  21809740.631     -237513.946        1698.571          17.310                                                            
> 2019 11 12 07 59 42.0000924  0  8
G10  20292771.906      -37611.950         839.024          39.859    20292768.009      -73972.735         626.538          39.818
G12  21561738.519         758.269         -35.272          40.866                                                            
G15  24976754.153       69504.308       -2081.352          39.940                                                            
G20  20596627.452       51455.422       -1548.949          24.343                                                            
G24  22850560.986      108142.804       -2455.814          34.726    22850560.686      210352.264       -1833.859          33.847
G25  21131948.556     -130062.125        2724.277          27.604    21131913.181     -328049.512        2034.630          18.797
G31  23149190.549     -108631.034        3235.343          33.178                                                            
G32  21809306.531     -239221.717        1704.351          17.273                                                            
> 2019 11 12 07 59 43.0000924  0  8
G10  20292614.216      -38450.067         838.117          39.762    20292608.519      -74598.609         625.875          39.671
G12  21561740.318         794.486         -36.217          40.599                                                            
G15  24977151.977       71585.939       -2081.631          40.697                                                            
G20  20596919.449       53005.009       -1549.716          25.683                                                            
G24  22851026.563      110598.841       -2456.036          34.528    22851028.662      212186.325       -1834.061          33.146
G25  21131426.618     -132786.095        2723.970          27.966    21131393.940     -330083.589        2030.391          18.498
G31  23148572.077     -111865.905        3234.871          32.421                                                            
G32  21808870.933     -240929.168        1711.734          16.762                                                            
> 2019 11 12 07 59 44.0000924  0  8
G10  20292455.925      -39287.297         837.229          38.857    20292449.030      -75223.788         625.179          39.990
G12  21561749.312         831.709         -37.223          41.430                                                            
G15  24977549.502       73667.958       -2082.019          40.514                                                            
G20  20597215.345       54555.528       -1551.150          25.546                                                            
G24  22851497.837      113055.265       -2456.424          34.906    22851495.139      214020.588       -1834.263          31.958
G25  21130909.776     -135508.643        2722.548          28.032    21130878.597     -332117.730        2033.067          18.560
G31  23147953.905     -115100.133        3234.227          34.713                                                            
G32  21808432.037     -242626.298        1706.595          16.166                                                            
> 2019 11 12 07 59 45.0000924  0  8
G10  20292295.236      -40123.793         836.497          38.534    20292290.140      -75848.457         624.669          40.369
G12  21561761.903         869.626         -37.917          41.748                                                            
G15  24977945.828       75750.116       -2082.158          40.871                                                            
G20  20597513.638       56106.669       -1551.141          25.760                                                            
G24  22851960.117      115511.851       -2456.586          33.291    22851961.916      215855.048       -1834.460          33.151
G25  21130394.732     -138230.786        2722.143          29.973    21130357.558     -334149.951        2032.510          20.448
G31  23147339.630     -118334.021        3233.888          37.656                                                            
G32  21807998.237     -244333.368        1705.776          16.887                                                            
> 2019 11 12 07 59 46.0000924  0  8
G10  20292136.047      -40959.844         836.051          38.836    20292130.950      -76472.796         624.338          40.418
G12  21561766.100         908.086         -38.460          42.241                                                            
G15  24978343.653       77832.227       -2082.111          41.216                                                            
G20  20597806.835       57657.985       -1551.316          26.102                                                            
G24  22852427.194      117968.197       -2456.346          31.956    22852428.993      217689.357       -1834.310          31.135
G25  21129879.389     -140952.436        2721.650          30.200    21129845.213     -336175.900        2029.907          19.504
G31  23146722.058     -121567.806        3233.786          37.185                                                            
G32  21807563.538     -246040.572        1708.569          18.608                                                            
> 2019 11 12 07 59 47.0000924  0  8
G10  20291975.358      -41795.257         835.413          39.757    20291972.360      -77096.659         623.863          39.781
G12  21561777.492         947.237         -39.152          42.722                                                            
G15  24978742.976       79914.440       -2082.213          41.212                                                            
G20  20598103.330       59209.940       -1551.954          26.759                                                            
G24  22852894.570      120424.700       -2456.503          32.172    22852896.969      219523.722       -1834.365          29.688
G25  21129365.844     -143673.563        2721.127          29.858    21129322.075     -338207.382        2036.274          18.742
G31  23146105.984     -124801.260        3233.454          35.154                                                            
G32  21807127.640     -247747.610        1713.361          16.644                                                            
> 2019 11 12 07 59 48.0000924  0  8
G10  20291819.765      -42629.735         834.478          39.610    20291813.170      -77719.804         623.145          39.427
G12  21561784.087         987.404         -40.166          43.057                                                            
G15  24979138.402       81997.009       -2082.569          40.865                                                            
G20  20598399.525       60762.722       -1552.782          26.542                                                            
G24  22853363.446      122881.508       -2456.808          33.462    22853365.244      221358.426       -1834.704          29.653
G25  21128852.000     -146393.944        2720.382          29.676    21128807.631     -340237.387        2028.828          17.973
G31  23145487.512     -128034.091        3232.831          34.540                                                            
G32  21806693.240     -249454.286        1711.110          15.336                                                            
> 2019 11 12 07 59 49.0000924  0  8
G10  20291657.878      -43463.395         833.660          39.483    20291654.580      -78342.300         622.496          39.505
G12  21561793.681        1028.501         -41.097          43.563                                                            
G15  24979531.430       84079.944       -2082.935          40.483                                                            
G20  20598694.221       62316.318       -1553.596          26.460                                                            
G24  22853837.418      125338.604       -2457.096          34.430    22853831.422      223193.251       -1834.825          30.480
G25  21128333.959     -149113.414        2719.470          29.735    21128287.791     -342269.624        2026.572          17.846
G31  23144876.535     -131266.375        3232.285          35.946                                                            
G32  21806263.938     -251170.458        1711.402          16.030                                                            
> 2019 11 12 07 59 50.0000924  0 12
G10  20291500.187      -44296.102         832.707          39.558    20291495.990      -78964.163         621.862          40.256
G12  21561802.375        1070.505         -42.003          43.570                                                            
G15  24979931.953       86163.174       -2083.230          40.965                                                            
G20  20598993.713       63870.765       -1554.447          26.285                                                            
G24  22854301.796      127796.039       -2457.435          33.976    22854298.199      225028.292       -1835.041          31.459
G25  21127818.915     -151832.209        2718.794          30.822    21127773.347     -344296.395        2025.846          18.582
G31  23144260.762     -134498.122        3231.747          36.995                                                            
G32  21805834.335     -252877.023        1707.153          16.098                                                            
R02  20554737.152     -150532.127        3265.055          22.418                                                            
R12  19204552.565      -69938.159        1241.257          32.083                                                            
R11  20561299.309      108438.592       -2400.435          37.941                                                            
R01  20021191.717       34917.635        -649.773          35.455                                                            
> 2019 11 12 07 59 51.0000924  0 12
G10  20291342.796      -45128.335         832.233          39.213    20291337.699      -79585.575         621.413          40.235
G12  21561811.668        1113.143         -42.638          43.618                                                            
G15  24980329.778       88246.419       -2083.245          41.436                                                            
G20  20599285.711       65425.437       -1554.672          26.178                                                            
G24  22854772.170      130253.435       -2457.396          34.022    22854766.175      226863.338       -1835.046          31.564
G25  21127298.476     -154550.532        2718.324          30.997    21127249.909     -346326.603        2032.311          19.936
G31  23143643.189     -137729.705        3231.583          37.221                                                            
G32  21805398.737     -254583.603        1703.258          16.112                                                            
R02  20554127.074     -153796.047        3263.888          22.080                                                            
R12  19204322.624      -71178.753        1240.593          32.112                                                            
R11  20561755.293      110839.428       -2400.837          38.161                                                            
R01  20021318.530       35567.924        -650.288          35.658                                                            
> 2019 11 12 07 59 52.0000924  0 12
G10  20291182.107      -45960.028         831.693          38.301    20291179.709      -80206.689         621.113          40.394
G12  21561818.564        1156.233         -43.090          43.218                                                            
G15  24980724.904       90329.556       -2083.137          41.084                                                            
G20  20599585.803       66980.584       -1555.147          26.181                                                            
G24  22855238.947      132710.662       -2457.226          34.845    22855235.050      228698.223       -1834.885          33.286
G25  21126782.533     -157268.474        2717.942          31.668    21126737.564     -348354.218        2030.262          19.577
G31  23143032.212     -140961.176        3231.471          36.008                                                            
G32  21804961.040     -256285.922        1700.312          15.198                                                            
R02  20553523.891     -157062.103        3263.289          22.574                                                            
R12  19204089.386      -72418.681        1239.929          32.125                                                            
R11  20562203.783      113240.502       -2401.073          37.200                                                            
R01  20021439.346       36218.609        -650.685          35.564                                                            
> 2019 11 12 07 59 53.0000924  0 12
G10  20291027.714      -46791.038         831.011          38.907    20291022.018      -80827.266         620.577          40.082
G12  21561825.459        1200.144         -43.911          42.816                                                            
G15  24981121.829       92412.866       -2083.310          40.167                                                            
G20  20599877.502       68536.389       -1556.603          25.684                                                            
G24  22855706.024      135168.041       -2457.379          35.675    22855700.628      230533.229       -1835.006          29.528
G25  21126267.190     -159985.821        2717.346          31.056    21126216.225     -350383.333        2029.676          19.158
G31  23142416.139     -144192.234        3231.058          37.447                                                            
G32  21804521.844     -257992.369        1701.526          15.392                                                            
R02  20552921.908     -160333.264        3264.045          22.618                                                            
R12  19203857.046      -73657.700        1239.018          32.176                                                            
R11  20562646.876      115642.181       -2401.679          38.777                                                            
R01  20021566.458       36869.958        -651.349          36.214                                                            
> 2019 11 12 07 59 54.0000924  0 12
G10  20290867.924      -47620.982         829.944          38.931    20290863.428      -81447.038         619.772          40.173
G12  21561836.551        1245.173         -45.029          43.478                                                            
G15  24981521.153       94496.714       -2083.848          40.040                                                            
G20  20600173.697       70093.040       -1556.914          25.397                                                            
G24  22856173.700      137625.963       -2457.922          34.569    22856168.604      232368.753       -1835.525          27.458
G25  21125750.947     -162702.133        2716.313          30.715    21125703.880     -352414.963        2029.728          19.858
G31  23141800.065     -147422.496        3230.262          37.444                                                            
G32  21804085.646     -259698.169        1697.782          15.389                                                            
R02  20552314.829     -163596.774        3264.026          22.796                                                            
R12  19203623.808      -74895.474        1237.774          32.184                                                            
R11  20563101.061      118044.806       -2402.625          38.529                                                            
R01  20021680.979       37522.338        -652.380          36.460                                                            
> 2019 11 12 07 59 55.0000924  0 12
G10  20290711.133      -48450.018         829.036          38.636    20290706.336      -82066.087         619.049          40.206
G12  21561845.845        1291.220         -46.047          44.164                                                            
G15  24981915.080       96581.004       -2084.290          40.428                                                            
G20  20600465.095       71650.662       -1557.622          24.998                                                            
G24  22856640.177      140084.199       -2458.236          35.164    22856636.580      234204.560       -1835.807          28.136
G25  21125238.002     -165417.692        2715.559          29.854    21125185.239     -354441.618        2024.924          19.278
G31  23141185.790     -150652.229        3229.733          37.406                                                            
G32  21803651.846     -261401.065        1707.305          10.338                                                            
R02  20551733.531     -166858.748        3259.796          22.869                                                            
R12  19203404.959      -76132.125        1236.651          31.868                                                            
R11  20563549.251      120448.211       -2403.405          37.763                                                            
R01  20021800.296       38175.600        -653.262          36.179                                                            
> 2019 11 12 07 59 56.0000924  0 12
G10  20290553.442      -49278.142         828.124          38.792    20290548.346      -82684.529         618.441          39.469
G12  21561853.939        1338.204         -46.985          44.172                                                            
G15  24982315.003       98665.571       -2084.566          39.691                                                            
G20  20600762.789       73209.010       -1558.349          25.299                                                            
G24  22857112.350      142542.755       -2458.556          35.157    22857105.155      236040.476       -1835.916          29.278
G25  21124722.659     -168132.432        2714.740          30.195    21124668.696     -356470.720        2028.881          18.486
G31  23140568.518     -153881.369        3229.140          37.018                                                            
G32  21803216.547     -263111.529        1708.957          13.515                                                            
R02  20551098.571     -170120.055        3257.468          21.752                                                            
R12  19203169.922      -77367.775        1235.650          31.887                                                            
R11  20563997.441      122852.369       -2404.158          37.107                                                            
R01  20021929.507       38829.687        -654.088          35.857                                                            
> 2019 11 12 07 59 57.0000924  0 12
G10  20290395.152      -50105.438         827.296          39.257    20290390.655      -83302.326         617.797          39.723
G12  21561859.335        1386.022         -47.818          43.948                                                            
G15  24982706.832      100750.390       -2084.819          39.735                                                            
G20  20601064.380       74768.181       -1559.700          24.674                                                            
G24  22857577.029      145001.576       -2458.821          35.102    22857572.832      237876.563       -1836.087          29.712
G25  21124207.016     -170846.409        2713.977          30.077    21124150.055     -358497.359        2028.620          17.940
G31  23139956.342     -157110.000        3228.631          37.442                                                            
G32  21802783.047     -264815.332        1693.524          17.239                                                            
R02  20550451.918     -173376.931        3252.843          20.070                                                            
R12  19202940.881      -78602.340        1234.565          32.189                                                            
R11  20564450.727      125257.194       -2404.825          37.541                                                            
R01  20022048.224       39484.559        -654.872          36.184                                                            
> 2019 11 12 07 59 58.0000924  0 12
G10  20290239.859      -50931.979         826.541          39.638    20290233.564      -83919.564         617.238          40.050
G12  21561871.027        1434.709         -48.686          44.325                                                            
G15  24983105.256      102835.429       -2085.039          39.611                                                            
G20  20601367.470       76327.909       -1559.728          24.622                                                            
G24  22858049.202      147460.506       -2458.930          35.490    22858042.307      239712.800       -1836.237          29.930
G25  21123697.369     -173559.872        2713.463          29.321    21123636.211     -360528.143        2029.298          18.517
G31  23139339.069     -160338.260        3228.260          37.390                                                            
G32  21802350.747     -266520.313        1697.364          16.719                                                            
R02  20549852.333     -176632.157        3258.536          19.689                                                            
R12  19202709.741      -79836.042        1233.701          31.792                                                            
R11  20564896.518      127662.664       -2405.470          37.074                                                            
R01  20022180.433       40140.138        -655.578          36.305                                                            
> 2019 11 12 07 59 59.0000924  0 12
G10  20290083.967      -51757.822         825.843          39.299    20290076.173      -84536.224         616.659          39.846
G12  21561882.120        1484.168         -49.460          44.182                                                            
G15  24983503.081      104920.696       -2085.267          40.250                                                            
G20  20601657.070       77888.278       -1560.369          24.446                                                            
G24  22858515.679      149919.676       -2459.170          35.459    22858509.083      241549.129       -1836.329          29.652
G25  21123182.625     -176272.602        2712.730          28.626    21123119.069     -362558.052        2024.184          19.330
G31  23138726.293     -163566.053        3227.793          37.090                                                            
G32  21801921.744     -268225.364        1699.213          14.635                                                            
R02  20549297.417     -179888.409        3262.462          20.612                                                            
R12  19202481.299      -81068.829        1232.788          32.423                                                            
R11  20565346.507      130068.728       -2406.065          37.599                                                            
R01  20022297.352       40796.328        -656.190          35.982                                                            
> 2019 11 12 08 00  0.0000924  0 12
G10  20289922.979      -52582.821         824.999          38.918    20289919.381      -85152.308         616.084          40.082
G12  21561890.214        1534.499         -50.331          44.267                                                            
G15  24983900.306      107006.213       -2085.518          40.030                                                            
G20  20601950.866       79449.313       -1561.171          23.630                                                            
G24  22858985.753      152379.097       -2459.421          35.776    22858978.259      243385.753       -1836.624          29.819
G25  21122664.883     -178984.553        2711.951          27.781    21122604.925     -364586.630        2028.728          18.613
G31  23138111.119     -166793.460        3227.407          36.082                                                            
G32  21801482.847     -269910.127        1711.563          13.879                                                            
R02  20548637.574     -183151.453        3262.188          20.326                                                            
R12  19202251.658      -82300.613        1231.783          33.400                                                            
R11  20565811.485      132475.418       -2406.690          37.765                                                            
R01  20022421.166       41453.332        -657.004          36.050                                                            
> 2019 11 12 08 00  1.0000924  0 12
G10  20289765.887      -53406.993         824.172          38.763    20289762.290      -85767.793         615.485          40.152
G12  21561898.908        1585.685         -51.186          44.541                                                            
G15  24984299.629      109092.047       -2085.834          40.098                                                            
G20  20602250.659       81011.253       -1562.548          23.172                                                            
G24  22859453.729      154838.671       -2459.574          35.661    22859444.736      245222.458       -1836.705          29.886
G25  21122148.341     -181695.823        2711.270          27.987    21122090.181     -366615.870        2025.314          19.206
G31  23137496.245     -170020.274        3226.814          37.022                                                            
G32  21801045.150     -271614.622        1707.646          15.244                                                            
R02  20548034.092     -186416.624        3261.917          21.406                                                            
R12  19202010.924      -83531.361        1230.748          32.700                                                            
R11  20566245.285      134882.725       -2407.307          37.246                                                            
R01  20022536.287       42111.086        -657.755          35.809                                                            
> 2019 11 12 08 00  2.0000924  0 12
G10  20289612.394      -54230.490         823.497          38.937    20289605.798      -86382.671         614.878          40.191
G12  21561910.000        1637.661         -51.976          44.465                                                            
G15  24984697.754      111178.006       -2085.959          40.255                                                            
G20  20602550.151       82573.458       -1564.901          21.699                                                            
G24  22859923.804      157298.478       -2459.807          35.520    22859913.012      247059.336       -1836.878          29.772
G25  21121632.098     -184406.367        2710.544          27.031    21121574.538     -368632.763        2020.023          19.572
G31  23136879.871     -173246.747        3226.474          36.840                                                            
G32  21800613.749     -273319.062        1706.930          13.102                                                            
R02  20547471.981     -189672.804        3258.730          23.069                                                            
R12  19201794.175      -84761.230        1229.869          32.392                                                            
R11  20566702.768      137290.714       -2407.989          37.013                                                            
R01  20022668.495       42769.511        -658.425          35.809                                                            
> 2019 11 12 08 00  3.0000924  0 12
G10  20289456.801      -55053.204         822.713          38.902    20289449.307      -86997.085         614.414          40.015
G12  21561918.395        1690.425         -52.764          44.621                                                            
G15  24985096.478      113264.109       -2086.103          40.445                                                            
G20  20602842.749       84141.762       -1565.679          19.384                                                            
G24  22860388.482      159758.326       -2459.848          35.046    22860381.587      248896.190       -1836.854          29.856
G25  21121117.954     -187116.473        2710.106          24.896    21121059.795     -370655.191        2020.113          18.282
G31  23136269.494     -176472.842        3226.095          37.206                                                            
G32  21800175.453     -275036.502        1708.393          11.770                                                            
R02  20546859.505     -192931.973        3258.582          22.871                                                            
R12  19201534.554      -85990.200        1228.970          32.597                                                            
R11  20567153.656      139699.180       -2408.465          36.692                                                            
R01  20022800.104       43428.626        -659.115          36.145                                                            
> 2019 11 12 08 00  4.0000924  0 12
G10  20289297.312      -55875.247         822.043          39.038    20289292.815      -87610.964         613.879          40.007
G12  21561929.487        1743.949         -53.524          44.007                                                            
G15  24985496.101      115350.420       -2086.311          39.220                                                            
G20  20603123.355       85705.553       -1561.928          18.234                                                            
G24  22860855.859      162218.342       -2460.016          35.569    22860848.664      250733.233       -1837.043          29.227
G25  21120602.011     -189825.946        2709.473          25.291    21120540.854     -372671.992        2021.028          18.602
G31  23135654.320     -179698.573        3225.731          36.970                                                            
G32  21799750.347     -276742.505        1703.260           7.911                                                            
R02  20546255.723     -196195.805        3262.071          21.660                                                            
R12  19201304.613      -87218.403        1228.203          32.020                                                            
R11  20567589.554      142108.227       -2409.047          35.893                                                            
R01  20022927.816       44088.387        -659.761          35.532                                                            
> 2019 11 12 08 00  5.0000924  0 12
G10  20289140.221      -56696.409         821.162          38.984    20289136.323      -88224.173         613.209          40.109
G12  21561939.980        1798.380         -54.431          43.820                                                            
G15  24985894.825      117437.066       -2086.646          39.220                                                            
G20  20603433.340       87269.658       -1555.112          15.487                                                            
G24  22861323.835      164678.601       -2460.259          35.672    22861316.940      252570.445       -1837.212          28.839
G25  21120062.685     -192534.037        2708.153          24.133    21120028.509     -374695.147        2029.758          18.742
G31  23135039.445     -182923.769        3225.197          36.014                                                            
G32  21799310.252     -278445.005        1694.889          12.833                                                            
R02  20545558.106     -199457.141        3260.466          21.790                                                            
R12  19201092.360      -88445.480        1227.076          32.106                                                            
R11  20568052.434      144517.973       -2409.746          35.822                                                            
R01  20023042.336       44748.935        -660.548          34.927                                                            
> 2019 11 12 08 00  6.0000924  0 12
G10  20288987.926      -57516.926         820.518          39.043    20288980.431      -88836.874         612.701          40.195
G12  21561951.372        1853.566         -55.186          44.022                                                            
G15  24986302.842      119523.805       -2086.739          38.735                                                            
G20  20603721.440       88828.728       -1562.487          15.086                                                            
G24  22861795.708      167139.062       -2460.461          36.622    22861785.515      254407.766       -1837.321          28.685
G25  21119535.050     -195242.236        2707.673          24.667    21119509.868     -376714.657        2020.559          18.345
G31  23134426.070     -186148.637        3224.868          34.985                                                            
G32  21798872.854     -280151.870        1711.959          11.440                                                            
R02  20544989.700     -202715.383        3258.767          22.866                                                            
R12  19200858.822      -89671.657        1226.178          32.350                                                            
R11  20568494.627      146928.212       -2410.240          34.831                                                            
R01  20023150.561       45410.133        -661.198          33.956                                                            
> 2019 11 12 08 00  7.0000924  0 13
G10  20288828.436      -58336.607         819.681          38.511    20288824.239      -89448.996         612.122          40.421
G12  21561960.665        1909.611         -56.045          43.953                                                            
G15  24986702.166      121610.868       -2087.063          38.215                                                            
G20  20604018.535       90398.544       -1566.229          14.054                                                            
G24  22862263.384      169599.670       -2460.608          37.296    22862253.191      256245.234       -1837.469          28.227
G25  21119023.604     -197950.175        2707.939          25.469    21118998.721     -378736.186        2022.735          19.245
G31  23133815.992     -189372.986        3224.350          36.525                                                            
G32  21798444.451     -281855.705        1703.903          11.374                                                            
R02  20544394.012     -205972.891        3254.358          22.751                                                            
R13  22443145.434     -284667.965        4348.846          26.773                                                            
R12  19200621.986      -90896.888        1225.230          31.918                                                            
R11  20568947.614      149339.137       -2410.925          33.782                                                            
R01  20023286.367       46072.056        -661.923          33.857                                                            
> 2019 11 12 08 00  8.0000924  0 11
G10  20288674.343      -59155.471         818.864          38.325    20288668.647      -90060.455         611.459          40.286
G12  21561971.458        1966.566         -56.955          44.314                                                            
G15  24987098.791      123698.194       -2087.327          36.601                                                            
G24  22862734.059      172060.595       -2460.926          37.413    22862721.467      258082.957       -1837.722          27.771
G25  21118492.072     -200656.789        2706.614          24.152    21118486.676     -380756.336        2018.085          19.605
G31  23133201.118     -192596.888        3223.902          36.751                                                            
G32  21798003.156     -283556.385        1702.275          13.999                                                            
R02  20543786.333     -209230.139        3254.115          23.278                                                            
R12  19200400.439      -92121.061        1224.173          31.515                                                            
R11  20569385.611      151750.831       -2411.693          32.918                                                            
R01  20023397.291       46734.794        -662.739          33.180                                                            
> 2019 11 12 08 00  9.0000924  0 11
G10  20288517.552      -59973.636         818.166          38.227    20288512.755      -90671.421         610.966          40.203
G12  21561982.550        2024.287         -57.721          44.125                                                            
G15  24987497.515      125785.626       -2087.431          35.158                                                            
G24  22863200.835      174521.598       -2461.003          37.415    22863189.443      259920.711       -1837.754          27.334
G25  21117985.423     -203362.208        2705.621          25.141    21117976.429     -382775.777        2022.207          19.794
G31  23132589.541     -195820.391        3223.503          36.594                                                            
G32  21797566.659     -285270.137        1705.343          14.846                                                            
R02  20543157.968     -212487.096        3257.774          22.109                                                            
R12  19200177.694      -93344.391        1223.330          31.030                                                            
R11  20569836.798      154163.009       -2412.178          33.122                                                            
R01  20023523.803       47398.131        -663.337          32.636                                                            
> 2019 11 12 08 00 10.0000924  0 11
G10  20288363.458      -60791.101         817.464          38.177    20288357.462      -91281.868         610.447          40.309
G12  21561995.141        2082.684         -58.397          44.357                                                            
G15  24987903.434      127873.280       -2087.654          33.482                                                            
G24  22863670.310      176982.682       -2461.084          37.727    22863659.818      261758.607       -1837.896          27.944
G25  21117470.979     -206067.758        2705.550          26.379    21117458.088     -384796.095        2019.264          21.034
G31  23131971.969     -199043.527        3223.136          37.245                                                            
G32  21797137.656     -286982.281        1704.631          15.091                                                            
R02  20542557.483     -215742.691        3258.870          21.307                                                            
R12  19199936.960      -94566.944        1222.553          30.621                                                            
R11  20570295.181      156575.713       -2412.704          32.951                                                            
R01  20023650.615       48062.094        -663.963          32.624                                                            
> 2019 11 12 08 00 11.0000924  0 11
G10  20288205.468      -61607.795         816.695          37.936    20288201.870      -91891.753         609.886          40.252
G12  21562003.536        2141.938         -59.254          44.027                                                            
G15  24988306.655      129961.070       -2087.790          33.072                                                            
G24  22864136.188      179443.892       -2461.210          37.582    22864126.894      263596.428       -1837.821          28.108
G25  21116955.636     -208772.466        2704.707          27.141    21116944.843     -386815.830        2019.899          20.200
G31  23131358.594     -202266.241        3222.714          37.329                                                            
G32  21796697.860     -288695.373        1703.546          14.832                                                            
R02  20541961.796     -218999.224        3253.689          22.953                                                            
